{"sections":{"main":{"type":"main-contact","settings":{}},"16372571968ec28445":{"type":"map","disabled":true,"settings":{"title":"Strolz Sport- und Modehaus Lech","address":"<p>Dorf 116, 6764 Lech, Austria<\/p>","hours":"<p>Mo - So, 9 - 19 Uhr<\/p><p>(24\/7 @ strolz.at)<\/p>","map_address":"Dorf 116, 6764 Lech, Österreich","map_link_label":"Wegbeschreibung erhalten","api_key":"","zoom":14,"map_style":"silver","image":"shopify:\/\/shop_images\/Strolz-Lech-Sportmodehaus-AK-klein.jpg"}},"1637260136138d4819":{"type":"map","disabled":true,"settings":{"title":"Strolz Skiverleih","address":"<p>Tannberg 120, 6764 Lech, Österreich<\/p>","hours":"<p>Mo - So, 9 - 19 Uhr<\/p>","map_address":"Tannberg 120, 6764 Lech, Österreich","map_link_label":"Wegbeschreibung erhalten","api_key":"","zoom":14,"map_style":"silver","image":"shopify:\/\/shop_images\/Strolz-Lech-Skiservice-AK-klein.jpg"}},"163726015545bd649f":{"type":"map","disabled":true,"settings":{"title":"Strolz Langlaufcenter","address":"<p>Omesberg 211, 6764 Lech, Österreich<\/p>","hours":"<p>Mo - So, 9 - 19 Uhr<\/p>","map_address":"Omesberg 211, 6764 Lech, Österreich","map_link_label":"Wegbeschreibung erhalten","api_key":"","zoom":14,"map_style":"silver","image":"shopify:\/\/shop_images\/Strolz-Lech-Filomena-AK-klein.jpg"}},"1637260162e7383122":{"type":"map","disabled":true,"settings":{"title":"Strolz Sporthaus Zürs","address":"<p>Hausnummer 205, 6763 Zürs, Österreich<\/p>","hours":"<p>Mo - So, 9 - 19 Uhr<\/p>","map_address":"Hausnummer 205, 6763 Zürs, Österreich","map_link_label":"Wegbeschreibung erhalten","api_key":"","zoom":14,"map_style":"silver","image":"shopify:\/\/shop_images\/Strolz-Zurs-Sportmode-AK-klein.jpg"}}},"order":["main","16372571968ec28445","1637260136138d4819","163726015545bd649f","1637260162e7383122"]}